{"type":"FeatureCollection", "features":[
{"type":"Feature","geometry":{"type":"Point","coordinates":[16.53433611111111,-28.57331666666667,0]},"properties":{"name":"FAAB","description":"Alexander Bay\nFREQ: 118.7 MHZ","altitudeMode":"clampToSeaFloor"}},
{"type":"Feature","geometry":{"type":"Point","coordinates":[28.30583333333333,-26.23805555555557,0]},"properties":{"name":"FABB","description":"Brakpan Benoni\nFREQ:122.7 MHZ","altitudeMode":"clampToSeaFloor"}},
{"type":"Feature","geometry":{"type":"Point","coordinates":[27.285,-32.895,0]},"properties":{"name":"FABE","description":"Bhisho","altitudeMode":"clampToSeaFloor"}},
{"type":"Feature","geometry":{"type":"Point","coordinates":[28.33611111111111,-28.24861111111111,0]},"properties":{"name":"FABM","description":"Bethlehem","altitudeMode":"clampToSeaFloor"}},
{"type":"Feature","geometry":{"type":"Point","coordinates":[22.66666666666667,-32.3,0]},"properties":{"name":"FABW","description":"Karoo Gateway","altitudeMode":"clampToSeaFloor"}},
{"type":"Feature","geometry":{"type":"Point","coordinates":[24.83166666666667,-34.18777777777778,0]},"properties":{"name":"FACF","description":"St Francis Field","altitudeMode":"clampToSeaFloor"}},
{"type":"Feature","geometry":{"type":"Point","coordinates":[22.26574166666667,-29.93320000000001,0]},"properties":{"name":"FACO","description":"Alkantpan Test Range","altitudeMode":"clampToSeaFloor"}},
{"type":"Feature","geometry":{"type":"Point","coordinates":[26.57738516666667,-32.79078197222222,0]},"properties":{"name":"FAFO","description":"Fort Beaufort"}},
{"type":"Feature","geometry":{"type":"Point","coordinates":[24.54031111111111,-32.19244166666666,0]},"properties":{"name":"FAGR","description":"Graaff-Reinet"}},
{"type":"Feature","geometry":{"type":"Point","coordinates":[30.58725555555555,-29.12151944444444,0]},"properties":{"name":"FAGY","description":"Greytown\nFREQ: 123.5 MHz"}},
{"type":"Feature","geometry":{"type":"Point","coordinates":[28.39101111111111,-26.50776111111111,0]},"properties":{"name":"FAHG","description":"Heidelberg\nFREQ: 125.9 MHz"}},
{"type":"Feature","geometry":{"type":"Point","coordinates":[32.275,-28.01388888888889,0]},"properties":{"name":"FAHL","description":"Hluhluwe"}},
{"type":"Feature","geometry":{"type":"Point","coordinates":[26.58138888888889,-33.13333333333333,0]},"properties":{"name":"FAKG","description":"KWANDWE"}},
{"type":"Feature","geometry":{"type":"Point","coordinates":[27.72567777777778,-26.08164722222223,0]},"properties":{"name":"FAKR","description":"Krugersdorp\nFREQ: 122.0 MHz"}},
{"type":"Feature","geometry":{"type":"Point","coordinates":[29.75273888888889,-28.57991388888889,0]},"properties":{"name":"FALY","description":"Ladysmith"}},
{"type":"Feature","geometry":{"type":"Point","coordinates":[31.54471388888889,-24.81758333333334,0]},"properties":{"name":"FAMD","description":"Malamala"}},
{"type":"Feature","geometry":{"type":"Point","coordinates":[30.34302777777777,-30.85736666666667,0]},"properties":{"name":"FAMG","description":"Margate\nFREQ: 122.7 MHz"}},
{"type":"Feature","geometry":{"type":"Point","coordinates":[31.56555555555556,-25.47333333333333,0]},"properties":{"name":"FAMN","description":"Malelane"}},
{"type":"Feature","geometry":{"type":"Point","coordinates":[22.06138888888889,-34.15694444444444,0]},"properties":{"name":"FAMO","description":"Mosselbay (CP/KP)"}},
{"type":"Feature","geometry":{"type":"Point","coordinates":[29.97638888888889,-27.77277777777778,0]},"properties":{"name":"FANC","description":"Newcastle"}},
{"type":"Feature","geometry":{"type":"Point","coordinates":[22.18333333333333,-33.6,0]},"properties":{"name":"FAOH","description":"Oudtshoorn\nFREQ: 131.100 MHz"}},
{"type":"Feature","geometry":{"type":"Point","coordinates":[26.87796666666667,-33.56038333333333,0]},"properties":{"name":"FAPA","description":"Port Alfred"}},
{"type":"Feature","geometry":{"type":"Point","coordinates":[30.84388888888888,-27.00222222222222,0]},"properties":{"name":"FAPF","description":"Piet Retief"}},
{"type":"Feature","geometry":{"type":"Point","coordinates":[23.32861666666667,-34.08815833333333,0]},"properties":{"name":"FAPG","description":"Plettenberg Bay"}},
{"type":"Feature","geometry":{"type":"Point","coordinates":[31.15509444444445,-23.93607777777778,0]},"properties":{"name":"FAPH","description":"Phalaborwa (Kruger Park Gateway)"}},
{"type":"Feature","geometry":{"type":"Point","coordinates":[29.48436111111111,-23.92605555555556,0]},"properties":{"name":"FAPI","description":"Pietersburg (Civil)"}},
{"type":"Feature","geometry":{"type":"Point","coordinates":[27.08410833333333,-26.66829166666667,0]},"properties":{"name":"FAPS","description":"Potchefstroom\nFREQ:  123.00 MHz"}},
{"type":"Feature","geometry":{"type":"Point","coordinates":[29.17222222222222,-26.52055555555555,0]},"properties":{"name":"FASC","description":"Secunda\nFREQ: 122.0 MHz"}},
{"type":"Feature","geometry":{"type":"Point","coordinates":[23,-27.65,0]},"properties":{"name":"FASS","description":"Sishen\nFREQ:  123.5 MHz"}},
{"type":"Feature","geometry":{"type":"Point","coordinates":[31.588825,-24.96132222222222,0]},"properties":{"name":"FASZ","description":"Skukuza\nFREQ: 125.250 MHz"}},
{"type":"Feature","geometry":{"type":"Point","coordinates":[23,-28.26666666666667,0]},"properties":{"name":"FATF","description":"Tommy's Field"}},
{"type":"Feature","geometry":{"type":"Point","coordinates":[29.33839964444445,-26.77855645555556,0]},"properties":{"name":"FATT","description":"Tutuka Power Station\nFREQ: 122.2 MHz"}},
{"type":"Feature","geometry":{"type":"Point","coordinates":[22.48083333333333,-27.20280555555555,0]},"properties":{"name":"FATW","description":"Tswalu Game Reserve"}},
{"type":"Feature","geometry":{"type":"Point","coordinates":[30.31666666666667,-23.83,0]},"properties":{"name":"FATZ","description":"Tzaneen"}},
{"type":"Feature","geometry":{"type":"Point","coordinates":[31.41705555555555,-28.31947222222222,0]},"properties":{"name":"FAUL","description":"Ulundi - PRINCE MANGOSUTHU BUTHELEZI"}},
{"type":"Feature","geometry":{"type":"Point","coordinates":[31.35409166666667,-24.78252777777778,0]},"properties":{"name":"FAUS","description":"Ulusaba"}},
{"type":"Feature","geometry":{"type":"Point","coordinates":[29.33501666666667,-22.44898055555555,0]},"properties":{"name":"FAVM","description":"Venetia Mine"}},
{"type":"Feature","geometry":{"type":"Point","coordinates":[29.192625,-25.83377777777778,0]},"properties":{"name":"FAWI","description":"Witbank\nFREQ: 123.5 MHz"}},
{"type":"Feature","geometry":{"type":"Point","coordinates":[18.74,-33.77138888888889,0]},"properties":{"name":"FAWN","description":"Cape Winelands\nFREQ: 131.10 MHz"}}
]}
